[
    {
      "Municipio" : "Albacete",
      "Danos" : 35998,
      "lat" : 38.99765,
      "long" : -1.86007
    },
    {
      "Municipio" : "El Picazo",
      "Danos" : 23732,
      "lat" : 39.446627,
      "long" : -2.090326
    },
    {
      "Municipio" : "Villamalea",
      "Danos" : 15451,
      "lat" : 39.36189,
      "long" : -1.599296
    },
    {
      "Municipio" : "Almansa",
      "Danos" : 10785,
      "lat" : 38.86941,
      "long" : -1.097517
    },
    {
      "Municipio" : "Serra",
      "Danos" : 9544,
      "lat" : 36.92159,
      "long" : -5.545621
    },
    {
      "Municipio" : "Tarazona Mancha",
      "Danos" : 8601,
      "lat" : 39.265026,
      "long" : -1.913189
    },
    {
      "Municipio" : "Ontinyent",
      "Danos" : 8208,
      "lat" : 38.82102,
      "long" : -0.610547
    },
    {
      "Municipio" : "Simat Valldigna",
      "Danos" : 8192,
      "lat" : 39.043744,
      "long" : -0.312113
    },
    {
      "Municipio" : "Barrax",
      "Danos" : 7733,
      "lat" : 39.04573,
      "long" : -2.200169
    },
    {
      "Municipio" : "La Gineta",
      "Danos" : 7703,
      "lat" : 39.116013,
      "long" : -1.998111
    },
    {
      "Municipio" : "Vinaros",
      "Danos" : 7227,
      "lat" : 40.469804,
      "long" : 0.468055
    },
    {
      "Municipio" : "Pedralba",
      "Danos" : 7072,
      "lat" : 42.02699,
      "long" : -6.696118
    },
    {
      "Municipio" : "Alarcon",
      "Danos" : 5519,
      "lat" : 39.55914,
      "long" : -2.092322
    },
    {
      "Municipio" : "Sagunto",
      "Danos" : 4421,
      "lat" : 39.68077,
      "long" : -0.2779768
    },
    {
      "Municipio" : "La Herrera",
      "Danos" : 3802,
      "lat" : 38.962549,
      "long" : -2.126162
    },
    {
      "Municipio" : "Pozorrubielos",
      "Danos" : 3653,
      "lat" : 39.44584,
      "long" : -2.038611
    },
    {
      "Municipio" : "Zarra",
      "Danos" : 3613,
      "lat" : 42.51579,
      "long" : -2.882306
    },
    {
      "Municipio" : "Teruel",
      "Danos" : 3564,
      "lat" : 40.34411,
      "long" : -1.10691
    },
    {
      "Municipio" : "Sagunt",
      "Danos" : 2790,
      "lat" : 39.68077,
      "long" : -0.2779768
    },
    {
      "Municipio" : "Anna",
      "Danos" : 2767,
      "lat" : 39.02021,
      "long" : -0.6453875
    },
    {
      "Municipio" : "Llombai",
      "Danos" : 2623,
      "lat" : 39.28243,
      "long" : -0.5724804
    },
    {
      "Municipio" : "Alzira",
      "Danos" : 2530,
      "lat" : 39.15159,
      "long" : -0.4404637
    },
    {
      "Municipio" : "Graja de Iniesta",
      "Danos" : 2400,
      "lat" : 39.51725,
      "long" : -1.669485
    },
    {
      "Municipio" : "Pego",
      "Danos" : 2395,
      "lat" : 41.33313,
      "long" : -5.469155
    },
    {
      "Municipio" : "Bugarra",
      "Danos" : 2344,
      "lat" : 39.60923,
      "long" : -0.7733291
    },
    {
      "Municipio" : "Mora de Rubielos",
      "Danos" : 2023,
      "lat" : 40.25319,
      "long" : -0.7525505
    },
    {
      "Municipio" : "Casas de Haro",
      "Danos" : 1972,
      "lat" : 39.33335,
      "long" : -2.272441
    },
    {
      "Municipio" : "Calpe",
      "Danos" : 1800,
      "lat" : 38.64483,
      "long" : 0.0454063
    },
    {
      "Municipio" : "Fuentelespino",
      "Danos" : 1759,
      "lat" : 39.69083,
      "long" : -2.668525
    },
    {
      "Municipio" : "La Roda",
      "Danos" : 1653,
      "lat" : 39.206336,
      "long" : -2.168402
    },
    {
      "Municipio" : "Alcala del Jucar",
      "Danos" : 1640,
      "lat" : 39.2023,
      "long" : -1.415796
    },
    {
      "Municipio" : "Villanueva de la Jara",
      "Danos" : 1604,
      "lat" : 39.44291,
      "long" : -1.953522
    },
    {
      "Municipio" : "Utiel",
      "Danos" : 1573,
      "lat" : 39.56762,
      "long" : -1.203385
    },
    {
      "Municipio" : "Villanueva Jara",
      "Danos" : 1443,
      "lat" : 39.440973,
      "long" : -1.952742
    },
    {
      "Municipio" : "Alberic",
      "Danos" : 1287,
      "lat" : 39.11652,
      "long" : -0.5177308
    },
    {
      "Municipio" : "Iniesta",
      "Danos" : 1158,
      "lat" : 39.44085,
      "long" : -1.749385
    },
    {
      "Municipio" : "Dos Aguas",
      "Danos" : 1128,
      "lat" : 39.28932,
      "long" : -0.7998479
    },
    {
      "Municipio" : "Algemesi",
      "Danos" : 1079,
      "lat" : 39.193971,
      "long" : -0.436584
    },
    {
      "Municipio" : "Mahora",
      "Danos" : 950,
      "lat" : 39.21283,
      "long" : -1.725332
    },
    {
      "Municipio" : "Requena",
      "Danos" : 889,
      "lat" : 42.30802,
      "long" : -4.343727
    },
    {
      "Municipio" : "Monovar",
      "Danos" : 886,
      "lat" : 38.437102,
      "long" : -0.840249
    },
    {
      "Municipio" : "Casas de Benitez",
      "Danos" : 717,
      "lat" : 39.361543,
      "long" : -2.12847
    },
    {
      "Municipio" : "Alcaraz",
      "Danos" : 682,
      "lat" : 38.66966,
      "long" : -2.492647
    },
    {
      "Municipio" : "Motilla del Palancar",
      "Danos" : 677,
      "lat" : 39.56567,
      "long" : -1.912222
    },
    {
      "Municipio" : "Cenizate",
      "Danos" : 663,
      "lat" : 39.3043,
      "long" : -1.661456
    },
    {
      "Municipio" : "El Peral",
      "Danos" : 629,
      "lat" : 39.497827,
      "long" : -1.897117
    },
    {
      "Municipio" : "Chinchilla",
      "Danos" : 622,
      "lat" : 38.91862,
      "long" : -1.722758
    },
    {
      "Municipio" : "Alfara de la Baronia",
      "Danos" : 590,
      "lat" : 39.763484,
      "long" : -0.355148
    },
    {
      "Municipio" : "Denia",
      "Danos" : 542,
      "lat" : 38.840846,
      "long" : 0.106377
    },
    {
      "Municipio" : "Robledo",
      "Danos" : 511,
      "lat" : 37.8951,
      "long" : -6.703943
    },
    {
      "Municipio" : "Fuentealbilla",
      "Danos" : 485,
      "lat" : 39.26686,
      "long" : -1.549186
    },
    {
      "Municipio" : "Benicarlo",
      "Danos" : 420,
      "lat" : 40.414774,
      "long" : 0.423408
    },
    {
      "Municipio" : "Balazote",
      "Danos" : 316,
      "lat" : 38.88408,
      "long" : -2.150826
    },
    {
      "Municipio" : "Villagarcia Llano",
      "Danos" : 258,
      "lat" : 39.327069,
      "long" : -1.847275
    },
    {
      "Municipio" : "Cortes de Pallas",
      "Danos" : 258,
      "lat" : 39.241937,
      "long" : -0.941502
    },
    {
      "Municipio" : "Albentosa",
      "Danos" : 212,
      "lat" : 40.10305,
      "long" : -0.7695187
    },
    {
      "Municipio" : "Lezuza",
      "Danos" : 210,
      "lat" : 38.94902,
      "long" : -2.353775
    },
    {
      "Municipio" : "Villalgordo del Jucar",
      "Danos" : 180,
      "lat" : 39.297284,
      "long" : -2.063847
    },
    {
      "Municipio" : "Burriana",
      "Danos" : 148,
      "lat" : 39.889554,
      "long" : -0.087125
    },
    {
      "Municipio" : "Minglanilla",
      "Danos" : 128,
      "lat" : 39.53357,
      "long" : -1.600453
    },
    {
      "Municipio" : "Alpera",
      "Danos" : 94,
      "lat" : 38.95939,
      "long" : -1.231247
    },
    {
      "Municipio" : "Villagarcia del Llano",
      "Danos" : 90,
      "lat" : 39.327069,
      "long" : -1.847275
    },
    {
      "Municipio" : "Vall d'Uixo",
      "Danos" : 4,
      "lat" : 39.8232,
      "long" : -0.233462
    },
    {
      "Municipio" : "Navajas",
      "Danos" : 3,
      "lat" : 39.87727,
      "long" : -0.505991
    }]
